{
  "places": [
    {
      "id": "4bf005a8c8d920a11f529430",
      "title": "Maiden Tower",
      "address": "Old City, Baku, Azerbaijan",
      "category": "historic_monument",
      "latlng": { "lat": 40.366284, "lng": 49.837258 }
    },
    {
      "id": "4e888042d3e328efd528c889",
      "title": "Icherisheher (Old City)",
      "address": "Neftchiler Av, Baku, Azerbaijan",
      "category": "historic_monument",
      "latlng": { "lat": 40.366471, "lng": 49.834964 }
    },
    {
      "id": "512b1ce5e4b05be0bb005f45",
      "title": "Ateshgah (Fire Temple)",
      "address": "Surakhani, Absheron, Azerbaijan",
      "category": "historic_monument",
      "latlng": { "lat": 40.415711, "lng": 50.008476 }
    },
    {
      "id": "4de9090488774aa92cae5232",
      "title": "Seaside Boulevard",
      "address": "Neftchiler Av, Baku, Azerbaijan",
      "category": "park",
      "latlng": { "lat": 40.370668, "lng": 49.849895 }
    },
    {
      "id": "4f9655eabb3d831b8b278a22",
      "title": "Mini Venice",
      "address": "Seaside Boulevard, Baku, Azerbaijan",
      "category": "park",
      "latlng": { "lat": 40.361517, "lng": 49.835758 }
    },
    {
      "id": "4e29b5c1149554c77446cdeb",
      "title": "Highland Park",
      "address": "Lermontov St (Martyrs' Alley), Baku, Azerbaijan",
      "category": "park",
      "latlng": { "lat": 40.357472, "lng": 49.830389 }
    },
    {
      "id": "4cb1a6f86c269521ba87b8d9",
      "title": "Carpet Museum",
      "address": "123A Neftchiler Av, Baku, Azerbaijan",
      "category": "museum",
      "latlng": { "lat": 40.3602, "lng": 49.835032 }
    },
    {
      "id": "5045d2ace4b0ced4ceb05990",
      "title": "History Museum",
      "address": "4 H. Z. Taghiyev St, Baku, Azerbaijan",
      "category": "museum",
      "latlng": { "lat": 40.369369, "lng": 49.839844 }
    },
    {
      "id": "4dc2847bd1643ed27a502735",
      "title": "Modern Art Museum",
      "address": "5 Yusif Safarov St, Baku, Azerbaijan",
      "category": "museum",
      "latlng": { "lat": 40.378222, "lng": 49.864645 }
    },
    {
      "id": "50cb39e5e4b0c490b5ff8c7b",
      "title": "Mugam Center",
      "address": "9 Neftchiler Av, Baku, Azerbaijan",
      "category": "music_hall",
      "latlng": { "lat": 40.360915, "lng": 49.834993 }
    },
    {
      "id": "5059dd2ce4b02a61e2a69e83",
      "title": "Philharmonic Hall",
      "address": "10 Istiglaliyyat St, Baku, Azerbaijan",
      "category": "music_hall",
      "latlng": { "lat": 40.364601, "lng": 49.831505 }
    },
    {
      "id": "50e3d8bee4b08361dc7cbb90",
      "title": "Baku Olympic Stadium",
      "address": "323 H. Aliyev Av, Baku, Azerbaijan",
      "category": "sports_hall",
      "latlng": { "lat": 40.429839, "lng": 49.919841 }
    },
    {
      "id": "5069233590e7df9ed3466c0a",
      "title": "National Gymnastics Arena",
      "address": "108 H. Aliyev Av, Baku, Azerbaijan",
      "category": "sports_hall",
      "latlng": { "lat": 40.418574, "lng": 49.917164 }
    }
  ]
}
